[
  {"name":"Amsterdam","country":"Netherlands","area":219,"population":921402,"gdpPerCapita":69134,"medianAge":36.6,"altitude":-2,"lat":52.3676,"lng":4.9041},
  {"name":"Ankara","country":"Turkey","area":2516,"population":5800000,"gdpPerCapita":13384,"medianAge":33.9,"altitude":938,"lat":39.9334,"lng":32.8597},
  {"name":"Athens","country":"Greece","area":39,"population":3153000,"gdpPerCapita":27170,"medianAge":43.0,"altitude":70,"lat":37.9838,"lng":23.7275},
  {"name":"Bangkok","country":"Thailand","area":1569,"population":10800000,"gdpPerCapita":7808,"medianAge":39.5,"altitude":1,"lat":13.7563,"lng":100.5018},
  {"name":"Beijing","country":"China","area":16411,"population":21893095,"gdpPerCapita":12614,"medianAge":39.7,"altitude":44,"lat":39.9042,"lng":116.4074},
  {"name":"Berlin","country":"Germany","area":891,"population":3850809,"gdpPerCapita":59925,"medianAge":42.8,"altitude":34,"lat":52.5200,"lng":13.4050},
  {"name":"Bern","country":"Switzerland","area":52,"population":144000,"gdpPerCapita":111047,"medianAge":42.3,"altitude":540,"lat":46.9480,"lng":7.4474},
  {"name":"Bogota","country":"Colombia","area":1775,"population":7968095,"gdpPerCapita":6932,"medianAge":32.0,"altitude":2640,"lat":4.7110,"lng":-74.0721},
  {"name":"Brussels","country":"Belgium","area":161,"population":1230000,"gdpPerCapita":60418,"medianAge":37.5,"altitude":13,"lat":50.8503,"lng":4.3517},
  {"name":"Bucharest","country":"Romania","area":240,"population":1716983,"gdpPerCapita":22436,"medianAge":41.2,"altitude":55,"lat":44.4268,"lng":26.1025},
  {"name":"Budapest","country":"Hungary","area":525,"population":1730000,"gdpPerCapita":25916,"medianAge":42.4,"altitude":96,"lat":47.4979,"lng":19.0402},
  {"name":"Buenos Aires","country":"Argentina","area":203,"population":3121707,"gdpPerCapita":13350,"medianAge":35.5,"altitude":25,"lat":-34.6037,"lng":-58.3816},
  {"name":"Cairo","country":"Egypt","area":3085,"population":10230350,"gdpPerCapita":3547,"medianAge":24.6,"altitude":23,"lat":30.0444,"lng":31.2357},
  {"name":"Canberra","country":"Australia","area":814,"population":472000,"gdpPerCapita":64820,"medianAge":35.3,"altitude":578,"lat":-35.2809,"lng":149.1300},
  {"name":"Helsinki","country":"Finland","area":715,"population":684000,"gdpPerCapita":56084,"medianAge":40.4,"altitude":25,"lat":60.1699,"lng":24.9384},
  {"name":"Jakarta","country":"Indonesia","area":664,"population":10562088,"gdpPerCapita":4920,"medianAge":31.4,"altitude":8,"lat":-6.2088,"lng":106.8456},
  {"name":"Kabul","country":"Afghanistan","area":1023,"population":4601789,"gdpPerCapita":415,"medianAge":18.9,"altitude":1790,"lat":34.5553,"lng":69.2075},
  {"name":"Lisbon","country":"Portugal","area":100,"population":567131,"gdpPerCapita":31415,"medianAge":46.0,"altitude":2,"lat":38.7223,"lng":-9.1393},
  {"name":"London","country":"United Kingdom","area":1572,"population":8982000,"gdpPerCapita":56661,"medianAge":36.5,"altitude":11,"lat":51.5072,"lng":-0.1276},
  {"name":"Madrid","country":"Spain","area":604,"population":3334730,"gdpPerCapita":38040,"medianAge":44.5,"altitude":667,"lat":40.4168,"lng":-3.7038},
  {"name":"Mexico City","country":"Mexico","area":1495,"population":9209944,"gdpPerCapita":13804,"medianAge":30.5,"altitude":2240,"lat":19.4326,"lng":-99.1332},
  {"name":"Moscow","country":"Russia","area":2511,"population":13100000,"gdpPerCapita":17446,"medianAge":39.8,"altitude":156,"lat":55.7558,"lng":37.6173},
  {"name":"Nairobi","country":"Kenya","area":696,"population":4550000,"gdpPerCapita":2100,"medianAge":19.0,"altitude":1795,"lat":-1.2921,"lng":36.8219},
  {"name":"Oslo","country":"Norway","area":454,"population":717710,"gdpPerCapita":91884,"medianAge":39.3,"altitude":23,"lat":59.9139,"lng":10.7522},
  {"name":"Ottawa","country":"Canada","area":2790,"population":1017449,"gdpPerCapita":53431,"medianAge":40.7,"altitude":70,"lat":45.4215,"lng":-75.6972},
  {"name":"Paris","country":"France","area":105,"population":2161000,"gdpPerCapita":48982,"medianAge":38.3,"altitude":35,"lat":48.8566,"lng":2.3522},
  {"name":"Prague","country":"Czech Republic","area":496,"population":1384000,"gdpPerCapita":35161,"medianAge":42.5,"altitude":235,"lat":50.0755,"lng":14.4378},
  {"name":"Reykjavik","country":"Iceland","area":273,"population":139875,"gdpPerCapita":98150,"medianAge":36.7,"altitude":61,"lat":64.1466,"lng":-21.9426},
  {"name":"Rome","country":"Italy","area":1285,"population":2748109,"gdpPerCapita":43161,"medianAge":45.4,"altitude":21,"lat":41.9028,"lng":12.4964},
  {"name":"Seoul","country":"South Korea","area":605,"population":9407540,"gdpPerCapita":33121,"medianAge":43.6,"altitude":38,"lat":37.5665,"lng":126.9780},
  {"name":"Stockholm","country":"Sweden","area":188,"population":984748,"gdpPerCapita":62036,"medianAge":39.7,"altitude":28,"lat":59.3293,"lng":18.0686},
  {"name":"Tokyo","country":"Japan","area":2194,"population":14043239,"gdpPerCapita":33806,"medianAge":45.0,"altitude":40,"lat":35.6762,"lng":139.6503},
  {"name":"Vienna","country":"Austria","area":414,"population":2000000,"gdpPerCapita":61690,"medianAge":40.5,"altitude":171,"lat":48.2082,"lng":16.3738},
  {"name":"Warsaw","country":"Poland","area":517,"population":1860281,"gdpPerCapita":28485,"medianAge":42.0,"altitude":100,"lat":52.2297,"lng":21.0122},
  {"name":"Wellington","country":"New Zealand","area":442,"population":215100,"gdpPerCapita":48802,"medianAge":37.9,"altitude":26,"lat":-41.2865,"lng":174.7762}
]
